FarmerId,FarmerName,Latitude,Longitude,LandArea,FarmerRating
1,Vaishnavi,12.958651,77.643928,8093.51,5
2,Vibha,12.958908,77.642589,8093.51,4
3,Manasa,12.958908,77.642589,7000.01,3
4,Raj,12.959892,77.643387,7000.01,2
5,Amar,12.960054,77.642923,7000.01,5
6,Faizan,12.959957,77.64156,4046.87,4
7,Sushant,12.959445,77.641335,6500.14,4.5
8,Zainab,12.957566,77.643973,5897.98,3
9,Binod,12.959489,77.641297,5897.98,3
10,Swati,12.958449,77.641191,7500.56,4.5
